{
	"type" : "FeatureCollection",
	"name" : "住宿",
	"features" : [
		{
			"type" : "Feature",
			"geometry" : {
				"type" : "Point",
				"coordinates" : [ 120.1655556093, 30.2715751073 ]
			},
			"properties" : {
				"名称" : "浙江国际大酒店",
				"类型" : "住宿服务;宾馆酒店;五星级宾馆",
				"地址" : "体育场路221号",
				"联系电话" : "0571-85770088"
			}
		},
		{
			"type" : "Feature",
			"geometry" : {
				"type" : "Point",
				"coordinates" : [ 120.1573331198, 30.2717947502 ]
			},
			"properties" : {
				"名称" : "杭州国大雷迪森广场酒店",
				"类型" : "住宿服务;宾馆酒店;五星级宾馆",
				"地址" : "体育场路333号",
				"联系电话" : "0571-85158888;0571-85109585;13735598013"
			}
		},
		{
			"type" : "Feature",
			"geometry" : {
				"type" : "Point",
				"coordinates" : [ 120.1567133694, 30.2708626966 ]
			},
			"properties" : {
				"名称" : "如家快捷酒店(杭州武林广场延安路店)",
				"类型" : "住宿服务;宾馆酒店;经济型连锁酒店",
				"地址" : "戒坛寺巷20号",
				"联系电话" : "0571-28022777"
			}
		},
		{
			"type" : "Feature",
			"geometry" : {
				"type" : "Point",
				"coordinates" : [ 120.1633634533, 30.2788362973 ]
			},
			"properties" : {
				"名称" : "汉庭酒店(杭州西湖文化广场店)",
				"类型" : "住宿服务;宾馆酒店;经济型连锁酒店",
				"地址" : "朝晖路198号",
				"联系电话" : "0571-85301500"
			}
		},
		{
			"type" : "Feature",
			"geometry" : {
				"type" : "Point",
				"coordinates" : [ 120.1580413232, 30.270477179 ]
			},
			"properties" : {
				"名称" : "杭州新延安饭店(西湖店)",
				"类型" : "住宿服务;宾馆酒店;宾馆酒店",
				"地址" : "延安路直戒坛寺巷20号",
				"联系电话" : "0571-85066111"
			}
		},
		{
			"type" : "Feature",
			"geometry" : {
				"type" : "Point",
				"coordinates" : [ 120.1580272251, 30.2711510906 ]
			},
			"properties" : {
				"名称" : "浙江大酒店",
				"类型" : "住宿服务;宾馆酒店;五星级宾馆",
				"地址" : "延安路595号",
				"联系电话" : "0571-85056666;0571-64785678"
			}
		},
		{
			"type" : "Feature",
			"geometry" : {
				"type" : "Point",
				"coordinates" : [ 120.1621994123, 30.2736606164 ]
			},
			"properties" : {
				"名称" : "汉庭(杭州武林广场东店)",
				"类型" : "住宿服务;宾馆酒店;经济型连锁酒店",
				"地址" : "中山北路522号",
				"联系电话" : "0571-85069900"
			}
		},
		{
			"type" : "Feature",
			"geometry" : {
				"type" : "Point",
				"coordinates" : [ 120.1644095842, 30.2667823925 ]
			},
			"properties" : {
				"名称" : "锦江之星旅馆",
				"类型" : "住宿服务;宾馆酒店;经济型连锁酒店",
				"地址" : "中山北路288号",
				"联系电话" : "0571-88263666"
			}
		},
		{
			"type" : "Feature",
			"geometry" : {
				"type" : "Point",
				"coordinates" : [ 120.1597534937, 30.2812983116 ]
			},
			"properties" : {
				"名称" : "如家精选酒店(杭州西湖文化广场地铁站店)",
				"类型" : "住宿服务;宾馆酒店;经济型连锁酒店",
				"地址" : "中山北路603号",
				"联系电话" : "0571-28116868"
			}
		},
		{
			"type" : "Feature",
			"geometry" : {
				"type" : "Point",
				"coordinates" : [ 120.1567031324, 30.2733344468 ]
			},
			"properties" : {
				"名称" : "瑞豪中心酒店",
				"类型" : "住宿服务;宾馆酒店;五星级宾馆",
				"地址" : "体育场路370号浙江文化大厦1、11-21层",
				"联系电话" : "0571-85066666;0571-85001300"
			}
		},
		{
			"type" : "Feature",
			"geometry" : {
				"type" : "Point",
				"coordinates" : [ 120.162609935, 30.2700887178 ]
			},
			"properties" : {
				"名称" : "如家商旅酒店(杭州西湖武林广场新店)",
				"类型" : "住宿服务;宾馆酒店;经济型连锁酒店",
				"地址" : "中山北路417号",
				"联系电话" : "0571-85383333"
			}
		},
		{
			"type" : "Feature",
			"geometry" : {
				"type" : "Point",
				"coordinates" : [ 120.1614332441, 30.2722813141 ]
			},
			"properties" : {
				"名称" : "如家快捷酒店(杭州武林广场地铁站店)",
				"类型" : "住宿服务;宾馆酒店;经济型连锁酒店",
				"地址" : "体育场路279-1号杭州粮贸大厦",
				"联系电话" : "0571-88853335"
			}
		},
		{
			"type" : "Feature",
			"geometry" : {
				"type" : "Point",
				"coordinates" : [ 120.1626944874, 30.2784680801 ]
			},
			"properties" : {
				"名称" : "星程菲斯泰尔酒店",
				"类型" : "住宿服务;宾馆酒店;宾馆酒店",
				"地址" : "朝晖路211号2层",
				"联系电话" : "0571-85302000;0571-85397396"
			}
		},
		{
			"type" : "Feature",
			"geometry" : {
				"type" : "Point",
				"coordinates" : [ 120.1577955934, 30.2824645675 ]
			},
			"properties" : {
				"名称" : "杭州致远大酒店",
				"类型" : "住宿服务;宾馆酒店;四星级宾馆",
				"地址" : "文晖路321号",
				"联系电话" : "0571-88008088;0571-88008299"
			}
		},
		{
			"type" : "Feature",
			"geometry" : {
				"type" : "Point",
				"coordinates" : [ 120.1593811676, 30.271979521 ]
			},
			"properties" : {
				"名称" : "杭州大酒店",
				"类型" : "住宿服务;宾馆酒店;四星级宾馆",
				"地址" : "延安路546号",
				"联系电话" : "0571-85166888"
			}
		},
		{
			"type" : "Feature",
			"geometry" : {
				"type" : "Point",
				"coordinates" : [ 120.1637090882, 30.2716176361 ]
			},
			"properties" : {
				"名称" : "杭州Pagoda君亭设计酒店",
				"类型" : "住宿服务;宾馆酒店;四星级宾馆",
				"地址" : "体育场路261号西子大厦",
				"联系电话" : "0571-28116666"
			}
		},
		{
			"type" : "Feature",
			"geometry" : {
				"type" : "Point",
				"coordinates" : [ 120.1621507845, 30.2674680973 ]
			},
			"properties" : {
				"名称" : "全季酒店(杭州西湖凤起路店)",
				"类型" : "住宿服务;宾馆酒店;经济型连锁酒店",
				"地址" : "凤起路380号",
				"联系电话" : "0571-85837999"
			}
		},
		{
			"type" : "Feature",
			"geometry" : {
				"type" : "Point",
				"coordinates" : [ 120.1534685863, 30.2740844808 ]
			},
			"properties" : {
				"名称" : "全季酒店(杭州武林门店)",
				"类型" : "住宿服务;宾馆酒店;经济型连锁酒店",
				"地址" : "武林路480号",
				"联系电话" : "0571-86758099"
			}
		},
		{
			"type" : "Feature",
			"geometry" : {
				"type" : "Point",
				"coordinates" : [ 120.1661164862, 30.2691753829 ]
			},
			"properties" : {
				"名称" : "屏风商务酒店",
				"类型" : "住宿服务;宾馆酒店;宾馆酒店",
				"地址" : "屏风街3号(武林广场附近)",
				"联系电话" : ""
			}
		},
		{
			"type" : "Feature",
			"geometry" : {
				"type" : "Point",
				"coordinates" : [ 120.1619066728, 30.2720652189 ]
			},
			"properties" : {
				"名称" : "北海假日酒店",
				"类型" : "住宿服务;宾馆酒店;三星级宾馆",
				"地址" : "中山北路439号杭州医药大楼",
				"联系电话" : ""
			}
		},
		{
			"type" : "Feature",
			"geometry" : {
				"type" : "Point",
				"coordinates" : [ 120.1544415073, 30.2731313334 ]
			},
			"properties" : {
				"名称" : "凌云航空大酒店",
				"类型" : "住宿服务;宾馆酒店;宾馆酒店",
				"地址" : "体育场路396号民航大厦",
				"联系电话" : "0571-28916888;0571-85333335"
			}
		},
		{
			"type" : "Feature",
			"geometry" : {
				"type" : "Point",
				"coordinates" : [ 120.155031452, 30.2705396485 ]
			},
			"properties" : {
				"名称" : "恒佳精品酒店",
				"类型" : "住宿服务;宾馆酒店;三星级宾馆",
				"地址" : "武林路398号",
				"联系电话" : "0571-28820555"
			}
		},
		{
			"type" : "Feature",
			"geometry" : {
				"type" : "Point",
				"coordinates" : [ 120.163860928, 30.2789682173 ]
			},
			"properties" : {
				"名称" : "米兰风尚酒店",
				"类型" : "住宿服务;宾馆酒店;经济型连锁酒店",
				"地址" : "朝晖路188号,近武林广场、西湖文化广场、地铁1号线",
				"联系电话" : "0571-85305555"
			}
		},
		{
			"type" : "Feature",
			"geometry" : {
				"type" : "Point",
				"coordinates" : [ 120.1548487716, 30.2722711548 ]
			},
			"properties" : {
				"名称" : "新年禧酒店(万寿亭街)",
				"类型" : "住宿服务;宾馆酒店;三星级宾馆",
				"地址" : "武林路440号",
				"联系电话" : "0571-28281717"
			}
		},
		{
			"type" : "Feature",
			"geometry" : {
				"type" : "Point",
				"coordinates" : [ 120.1549400887, 30.2716803763 ]
			},
			"properties" : {
				"名称" : "7天酒店(杭州西湖武林广场店)",
				"类型" : "住宿服务;宾馆酒店;经济型连锁酒店",
				"地址" : "武林路428号",
				"联系电话" : "0571-88155488;4008740087"
			}
		},
		{
			"type" : "Feature",
			"geometry" : {
				"type" : "Point",
				"coordinates" : [ 120.1629490336, 30.2690494481 ]
			},
			"properties" : {
				"名称" : "瑞尚假日酒店",
				"类型" : "住宿服务;宾馆酒店;宾馆酒店",
				"地址" : "百井坊巷55号(中山北路与百井坊巷交汇口)",
				"联系电话" : "0571-88002323;0571-85789532"
			}
		},
		{
			"type" : "Feature",
			"geometry" : {
				"type" : "Point",
				"coordinates" : [ 120.1628335236, 30.2710280497 ]
			},
			"properties" : {
				"名称" : "华园宾馆(中山北路)(装修中)",
				"类型" : "住宿服务;宾馆酒店;三星级宾馆",
				"地址" : "中山北路436号(武林广场附近(市中心)近白井坊巷)",
				"联系电话" : "0571-85867009;0571-85867008"
			}
		},
		{
			"type" : "Feature",
			"geometry" : {
				"type" : "Point",
				"coordinates" : [ 120.1583753129, 30.2824156436 ]
			},
			"properties" : {
				"名称" : "宁静大酒店",
				"类型" : "住宿服务;宾馆酒店;四星级宾馆",
				"地址" : "文晖路315号",
				"联系电话" : "0571-85318502;0571-85394888"
			}
		},
		{
			"type" : "Feature",
			"geometry" : {
				"type" : "Point",
				"coordinates" : [ 120.1613972222, 30.2832251798 ]
			},
			"properties" : {
				"名称" : "美亚城市酒店(西湖文化广场店)",
				"类型" : "住宿服务;宾馆酒店;三星级宾馆",
				"地址" : "文晖路271号越都商务大厦4层",
				"联系电话" : "0571-88236333"
			}
		},
		{
			"type" : "Feature",
			"geometry" : {
				"type" : "Point",
				"coordinates" : [ 120.165377059, 30.2717747531 ]
			},
			"properties" : {
				"名称" : "泊杭主题酒店(杭州西湖武林广场店)",
				"类型" : "住宿服务;宾馆酒店;宾馆酒店",
				"地址" : "体育场路222号(鸿运轩三楼)",
				"联系电话" : "0571-85370868;13106285888"
			}
		},
		{
			"type" : "Feature",
			"geometry" : {
				"type" : "Point",
				"coordinates" : [ 120.1548046125, 30.2726260412 ]
			},
			"properties" : {
				"名称" : "鑫概念酒店(武林广场店)",
				"类型" : "住宿服务;宾馆酒店;宾馆酒店",
				"地址" : "体育场路365号(萧山国际机场大巴正对面)",
				"联系电话" : "0571-85165999"
			}
		},
		{
			"type" : "Feature",
			"geometry" : {
				"type" : "Point",
				"coordinates" : [ 120.1538235771, 30.2746170721 ]
			},
			"properties" : {
				"名称" : "杭州城家民居普通公寓(密渡桥一弄店)",
				"类型" : "住宿服务;住宿服务相关;住宿服务相关",
				"地址" : "武林路458号院7幢1单元502室",
				"联系电话" : ""
			}
		},
		{
			"type" : "Feature",
			"geometry" : {
				"type" : "Point",
				"coordinates" : [ 120.1623790153, 30.2728530285 ]
			},
			"properties" : {
				"名称" : "金涵精品酒店",
				"类型" : "住宿服务;宾馆酒店;宾馆酒店",
				"地址" : "体育场路298号(武林广场E出口,近西湖)",
				"联系电话" : "0571-81957658"
			}
		},
		{
			"type" : "Feature",
			"geometry" : {
				"type" : "Point",
				"coordinates" : [ 120.1636679674, 30.2715935612 ]
			},
			"properties" : {
				"名称" : "杭州运河公寓(中山北路店)",
				"类型" : "住宿服务;住宿服务相关;住宿服务相关",
				"地址" : "西子大厦1505室",
				"联系电话" : ""
			}
		},
		{
			"type" : "Feature",
			"geometry" : {
				"type" : "Point",
				"coordinates" : [ 120.1567020457, 30.2743313504 ]
			},
			"properties" : {
				"名称" : "杭州大厦宾馆",
				"类型" : "住宿服务;宾馆酒店;四星级宾馆",
				"地址" : "武林广场21号杭州大厦A座7层",
				"联系电话" : "0571-85153911"
			}
		},
		{
			"type" : "Feature",
			"geometry" : {
				"type" : "Point",
				"coordinates" : [ 120.1593934961, 30.2684878656 ]
			},
			"properties" : {
				"名称" : "赫纳酒店",
				"类型" : "住宿服务;宾馆酒店;四星级宾馆",
				"地址" : "延安路508号雅戈尔大厦",
				"联系电话" : "0571-88920666"
			}
		},
		{
			"type" : "Feature",
			"geometry" : {
				"type" : "Point",
				"coordinates" : [ 120.1638204211, 30.2716128453 ]
			},
			"properties" : {
				"名称" : "杭州西子多吉公寓",
				"类型" : "住宿服务;住宿服务相关;住宿服务相关",
				"地址" : "体育场路261号西子大厦",
				"联系电话" : "18616775980"
			}
		},
		{
			"type" : "Feature",
			"geometry" : {
				"type" : "Point",
				"coordinates" : [ 120.1546373274, 30.2701809641 ]
			},
			"properties" : {
				"名称" : "杭州西湖后花园普通公寓",
				"类型" : "住宿服务;住宿服务相关;住宿服务相关",
				"地址" : "武林桥河下劳工弄4号楼202(武林广场附近市中心)",
				"联系电话" : ""
			}
		},
		{
			"type" : "Feature",
			"geometry" : {
				"type" : "Point",
				"coordinates" : [ 120.1563366508, 30.2661894299 ]
			},
			"properties" : {
				"名称" : "杭州水岸寒舍家庭民宿武林路店",
				"类型" : "住宿服务;住宿服务相关;住宿服务相关",
				"地址" : "交叉口武林路凤起路武林路226号201室",
				"联系电话" : ""
			}
		},
		{
			"type" : "Feature",
			"geometry" : {
				"type" : "Point",
				"coordinates" : [ 120.1552471113, 30.2702190713 ]
			},
			"properties" : {
				"名称" : "杭州南山街边美院小屋",
				"类型" : "住宿服务;住宿服务相关;住宿服务相关",
				"地址" : "武林桥河下1号一单元202室",
				"联系电话" : ""
			}
		},
		{
			"type" : "Feature",
			"geometry" : {
				"type" : "Point",
				"coordinates" : [ 120.1545588459, 30.2731875414 ]
			},
			"properties" : {
				"名称" : "齐家臻品酒店(杭州武林广场机场大巴店)",
				"类型" : "住宿服务;住宿服务相关;住宿服务相关",
				"地址" : "体育场路396号(凌云航空大酒店隔壁)",
				"联系电话" : "0571-28069929;0571-89717606;18358180215"
			}
		},
		{
			"type" : "Feature",
			"geometry" : {
				"type" : "Point",
				"coordinates" : [ 120.1661555974, 30.2692444501 ]
			},
			"properties" : {
				"名称" : "全季酒店(杭州中河北路店)",
				"类型" : "住宿服务;宾馆酒店;宾馆酒店",
				"地址" : "屏风街3号茂泰世纪大楼",
				"联系电话" : "0571-28031188"
			}
		},
		{
			"type" : "Feature",
			"geometry" : {
				"type" : "Point",
				"coordinates" : [ 120.1616232406, 30.2790970146 ]
			},
			"properties" : {
				"名称" : "亚朵酒店(西湖文化广场店)",
				"类型" : "住宿服务;宾馆酒店;宾馆酒店",
				"地址" : "中山北路588号",
				"联系电话" : "0571-28866888"
			}
		},
		{
			"type" : "Feature",
			"geometry" : {
				"type" : "Point",
				"coordinates" : [ 120.1627772711, 30.27204185 ]
			},
			"properties" : {
				"名称" : "桔子水晶酒店(武林广场银泰店)",
				"类型" : "住宿服务;宾馆酒店;宾馆酒店",
				"地址" : "中山北路450号",
				"联系电话" : "0571-28021166"
			}
		},
		{
			"type" : "Feature",
			"geometry" : {
				"type" : "Point",
				"coordinates" : [ 120.1599382011, 30.2674399725 ]
			},
			"properties" : {
				"名称" : "浙江影时代酒店(皇亲巷)",
				"类型" : "住宿服务;宾馆酒店;宾馆酒店",
				"地址" : "延安路468号1号楼2号门",
				"联系电话" : "0571-85100988"
			}
		},
		{
			"type" : "Feature",
			"geometry" : {
				"type" : "Point",
				"coordinates" : [ 120.16239962, 30.2783215425 ]
			},
			"properties" : {
				"名称" : "杭州花田赞酒店(西湖文化广场店)",
				"类型" : "住宿服务;宾馆酒店;宾馆酒店",
				"地址" : "朝辉路213号中山花园秋月苑4-2-4",
				"联系电话" : "0571-87352930"
			}
		},
		{
			"type" : "Feature",
			"geometry" : {
				"type" : "Point",
				"coordinates" : [ 120.1614255064, 30.2688656151 ]
			},
			"properties" : {
				"名称" : "杭州百井小栈",
				"类型" : "住宿服务;住宿服务相关;住宿服务相关",
				"地址" : "百井坊巷77号百井大厦2层",
				"联系电话" : "0571-87636259;15869187412"
			}
		},
		{
			"type" : "Feature",
			"geometry" : {
				"type" : "Point",
				"coordinates" : [ 120.163686001, 30.2718355724 ]
			},
			"properties" : {
				"名称" : "杭州小明同学民宿(体育场路店)",
				"类型" : "住宿服务;住宿服务相关;住宿服务相关",
				"地址" : "体育场路261号(近中河路)",
				"联系电话" : ""
			}
		},
		{
			"type" : "Feature",
			"geometry" : {
				"type" : "Point",
				"coordinates" : [ 120.1637010766, 30.2714696348 ]
			},
			"properties" : {
				"名称" : "杭州1开心公寓",
				"类型" : "住宿服务;住宿服务相关;住宿服务相关",
				"地址" : "体育场路261号西子大厦",
				"联系电话" : ""
			}
		},
		{
			"type" : "Feature",
			"geometry" : {
				"type" : "Point",
				"coordinates" : [ 120.1567498596, 30.2662901795 ]
			},
			"properties" : {
				"名称" : "杭州西子之家精品民宿武林路店",
				"类型" : "住宿服务;住宿服务相关;住宿服务相关",
				"地址" : "狮虎桥路和武林路交叉口凤起桥河下4号楼101",
				"联系电话" : ""
			}
		},
		{
			"type" : "Feature",
			"geometry" : {
				"type" : "Point",
				"coordinates" : [ 120.163659934, 30.2717065356 ]
			},
			"properties" : {
				"名称" : "杭州湖畔居(原西湖客栈)",
				"类型" : "住宿服务;住宿服务相关;住宿服务相关",
				"地址" : "体育场路261号西子大厦",
				"联系电话" : ""
			}
		},
		{
			"type" : "Feature",
			"geometry" : {
				"type" : "Point",
				"coordinates" : [ 120.1637943367, 30.2716907891 ]
			},
			"properties" : {
				"名称" : "杭州西子木辰宿酒店式公寓",
				"类型" : "住宿服务;住宿服务相关;住宿服务相关",
				"地址" : "体育场路261号西子大厦",
				"联系电话" : "0571-10107888;18667003257"
			}
		},
		{
			"type" : "Feature",
			"geometry" : {
				"type" : "Point",
				"coordinates" : [ 120.1655915042, 30.2741219354 ]
			},
			"properties" : {
				"名称" : "天水商务酒店(天水巷)",
				"类型" : "住宿服务;宾馆酒店;宾馆酒店",
				"地址" : "天水巷1-4号7层",
				"联系电话" : "0571-88033281"
			}
		},
		{
			"type" : "Feature",
			"geometry" : {
				"type" : "Point",
				"coordinates" : [ 120.1630161146, 30.2704764428 ]
			},
			"properties" : {
				"名称" : "速8酒店(杭州武林广场地铁站店)",
				"类型" : "住宿服务;宾馆酒店;经济型连锁酒店",
				"地址" : "中山北路422号",
				"联系电话" : "0571-85150515;15088609171"
			}
		},
		{
			"type" : "Feature",
			"geometry" : {
				"type" : "Point",
				"coordinates" : [ 120.1620785702, 30.2674559633 ]
			},
			"properties" : {
				"名称" : "杭州西子河畔的家普通公寓",
				"类型" : "住宿服务;住宿服务相关;住宿服务相关",
				"地址" : "百井坊巷13号皇亲苑社区",
				"联系电话" : ""
			}
		},
		{
			"type" : "Feature",
			"geometry" : {
				"type" : "Point",
				"coordinates" : [ 120.1541818279, 30.2721769516 ]
			},
			"properties" : {
				"名称" : "宝丽旅馆(武林路)",
				"类型" : "住宿服务;旅馆招待所;旅馆招待所",
				"地址" : "武林路425号",
				"联系电话" : "0571-85160191;13735534703"
			}
		},
		{
			"type" : "Feature",
			"geometry" : {
				"type" : "Point",
				"coordinates" : [ 120.1611114545, 30.2822277473 ]
			},
			"properties" : {
				"名称" : "星晖假日酒店",
				"类型" : "住宿服务;宾馆酒店;宾馆酒店",
				"地址" : "中山北路614号(西湖文化广场地铁A-D出口中间)",
				"联系电话" : "0571-85160648"
			}
		},
		{
			"type" : "Feature",
			"geometry" : {
				"type" : "Point",
				"coordinates" : [ 120.1552310598, 30.2702720372 ]
			},
			"properties" : {
				"名称" : "杭州武林桥河下民宿",
				"类型" : "住宿服务;住宿服务相关;住宿服务相关",
				"地址" : "武林桥河下1号楼2单元401",
				"联系电话" : "15167124962"
			}
		},
		{
			"type" : "Feature",
			"geometry" : {
				"type" : "Point",
				"coordinates" : [ 120.166121617, 30.2677915183 ]
			},
			"properties" : {
				"名称" : "杭州粉寓蓝我与你一起美好从这里开始普通公寓",
				"类型" : "住宿服务;住宿服务相关;住宿服务相关",
				"地址" : "凤起路270号3楼3-1622",
				"联系电话" : ""
			}
		},
		{
			"type" : "Feature",
			"geometry" : {
				"type" : "Point",
				"coordinates" : [ 120.1642479676, 30.2803648055 ]
			},
			"properties" : {
				"名称" : "杭州野风一哥的独立屋公寓(文晖路分店)",
				"类型" : "住宿服务;住宿服务相关;住宿服务相关",
				"地址" : "国都发展大厦",
				"联系电话" : ""
			}
		},
		{
			"type" : "Feature",
			"geometry" : {
				"type" : "Point",
				"coordinates" : [ 120.1620654902, 30.2679468945 ]
			},
			"properties" : {
				"名称" : "杭州姗格格之家普通公寓(中山北路店)",
				"类型" : "住宿服务;住宿服务相关;住宿服务相关",
				"地址" : "武林街道余官巷18号302",
				"联系电话" : ""
			}
		},
		{
			"type" : "Feature",
			"geometry" : {
				"type" : "Point",
				"coordinates" : [ 120.1637100913, 30.2716156381 ]
			},
			"properties" : {
				"名称" : "杭州栖迟西湖公寓(直戒坛寺巷分店)",
				"类型" : "住宿服务;住宿服务相关;住宿服务相关",
				"地址" : "天水街道(西子大厦)",
				"联系电话" : ""
			}
		},
		{
			"type" : "Feature",
			"geometry" : {
				"type" : "Point",
				"coordinates" : [ 120.1550756491, 30.2697338033 ]
			},
			"properties" : {
				"名称" : "杭州路客BD0300精品民宿",
				"类型" : "住宿服务;住宿服务相关;住宿服务相关",
				"地址" : "武林路347号",
				"联系电话" : ""
			}
		},
		{
			"type" : "Feature",
			"geometry" : {
				"type" : "Point",
				"coordinates" : [ 120.1546802599, 30.2724888278 ]
			},
			"properties" : {
				"名称" : "杭州z巧巧公寓(体育场路分店)",
				"类型" : "住宿服务;住宿服务相关;住宿服务相关",
				"地址" : "体育场路359号",
				"联系电话" : ""
			}
		},
		{
			"type" : "Feature",
			"geometry" : {
				"type" : "Point",
				"coordinates" : [ 120.1549019459, 30.2720502723 ]
			},
			"properties" : {
				"名称" : "新年禧客房部",
				"类型" : "住宿服务;宾馆酒店;宾馆酒店",
				"地址" : "武林路440",
				"联系电话" : "0571-28281717"
			}
		},
		{
			"type" : "Feature",
			"geometry" : {
				"type" : "Point",
				"coordinates" : [ 120.1561127265, 30.269358733 ]
			},
			"properties" : {
				"名称" : "杭州城家民居公寓(狮虎桥路分店)",
				"类型" : "住宿服务;住宿服务相关;住宿服务相关",
				"地址" : "戒坛寺巷17号(武林广场附近市中心)",
				"联系电话" : ""
			}
		},
		{
			"type" : "Feature",
			"geometry" : {
				"type" : "Point",
				"coordinates" : [ 120.1551479041, 30.2692189822 ]
			},
			"properties" : {
				"名称" : "杭州莫大Bai的小居特色民宿(狮虎桥路分店)",
				"类型" : "住宿服务;住宿服务相关;住宿服务相关",
				"地址" : "武林路347号武林路347号",
				"联系电话" : ""
			}
		},
		{
			"type" : "Feature",
			"geometry" : {
				"type" : "Point",
				"coordinates" : [ 120.1630674974, 30.2797026572 ]
			},
			"properties" : {
				"名称" : "杭州西湖文化广场旁阳光房公寓(上塘路分店)",
				"类型" : "住宿服务;住宿服务相关;住宿服务相关",
				"地址" : "中山北园-25幢",
				"联系电话" : ""
			}
		},
		{
			"type" : "Feature",
			"geometry" : {
				"type" : "Point",
				"coordinates" : [ 120.1585108297, 30.2810360329 ]
			},
			"properties" : {
				"名称" : "杭州品位咖啡标准酒店",
				"类型" : "住宿服务;住宿服务相关;住宿服务相关",
				"地址" : "青园秋水巷",
				"联系电话" : ""
			}
		},
		{
			"type" : "Feature",
			"geometry" : {
				"type" : "Point",
				"coordinates" : [ 120.1641804685, 30.2719494895 ]
			},
			"properties" : {
				"名称" : "莫泰168旅店(杭州武林广场地铁站杭州日报店)",
				"类型" : "住宿服务;宾馆酒店;经济型连锁酒店",
				"地址" : "体育场路257号天合写字楼6层",
				"联系电话" : "0571-85163288"
			}
		},
		{
			"type" : "Feature",
			"geometry" : {
				"type" : "Point",
				"coordinates" : [ 120.1538005308, 30.2743670542 ]
			},
			"properties" : {
				"名称" : "杭州信宿·湖上16普通公寓(武林路分店)",
				"类型" : "住宿服务;住宿服务相关;住宿服务相关",
				"地址" : "武林路458号8幢2-104",
				"联系电话" : ""
			}
		},
		{
			"type" : "Feature",
			"geometry" : {
				"type" : "Point",
				"coordinates" : [ 120.1636749848, 30.2716355704 ]
			},
			"properties" : {
				"名称" : "杭州西湖漫步小茗舍公寓(杭州天主教堂分店)",
				"类型" : "住宿服务;住宿服务相关;住宿服务相关",
				"地址" : "西子大厦",
				"联系电话" : ""
			}
		},
		{
			"type" : "Feature",
			"geometry" : {
				"type" : "Point",
				"coordinates" : [ 120.1549871681, 30.2723793968 ]
			},
			"properties" : {
				"名称" : "杭州教授立立公寓",
				"类型" : "住宿服务;住宿服务相关;住宿服务相关",
				"地址" : "劳工弄6号",
				"联系电话" : ""
			}
		},
		{
			"type" : "Feature",
			"geometry" : {
				"type" : "Point",
				"coordinates" : [ 120.1635486061, 30.2716523319 ]
			},
			"properties" : {
				"名称" : "杭州广场君亭酒店式公寓",
				"类型" : "住宿服务;住宿服务相关;住宿服务相关",
				"地址" : "体育场路261号",
				"联系电话" : "0571-28116666"
			}
		},
		{
			"type" : "Feature",
			"geometry" : {
				"type" : "Point",
				"coordinates" : [ 120.1532278607, 30.2743750186 ]
			},
			"properties" : {
				"名称" : "杭州赵爽公寓(京杭大运河分店)",
				"类型" : "住宿服务;住宿服务相关;住宿服务相关",
				"地址" : "豆腐里1号楼",
				"联系电话" : ""
			}
		},
		{
			"type" : "Feature",
			"geometry" : {
				"type" : "Point",
				"coordinates" : [ 120.1621363914, 30.2716606861 ]
			},
			"properties" : {
				"名称" : "杭州爱米一只公寓",
				"类型" : "住宿服务;住宿服务相关;住宿服务相关",
				"地址" : "中山北路439号-1单元",
				"联系电话" : ""
			}
		},
		{
			"type" : "Feature",
			"geometry" : {
				"type" : "Point",
				"coordinates" : [ 120.1629041078, 30.2785284667 ]
			},
			"properties" : {
				"名称" : "杭州爱家爷叔特色民宿(中河北路辅路分店)",
				"类型" : "住宿服务;住宿服务相关;住宿服务相关",
				"地址" : "朝晖路209号中山花园风荷苑(和平会展中心区域)",
				"联系电话" : ""
			}
		},
		{
			"type" : "Feature",
			"geometry" : {
				"type" : "Point",
				"coordinates" : [ 120.1636699537, 30.271828543 ]
			},
			"properties" : {
				"名称" : "杭州apple远行公寓",
				"类型" : "住宿服务;住宿服务相关;住宿服务相关",
				"地址" : "体育场路西子大厦",
				"联系电话" : ""
			}
		},
		{
			"type" : "Feature",
			"geometry" : {
				"type" : "Point",
				"coordinates" : [ 120.163721224, 30.2704247694 ]
			},
			"properties" : {
				"名称" : "杭州云上公寓(玄坛弄分店)",
				"类型" : "住宿服务;住宿服务相关;住宿服务相关",
				"地址" : "西子大厦",
				"联系电话" : ""
			}
		},
		{
			"type" : "Feature",
			"geometry" : {
				"type" : "Point",
				"coordinates" : [ 120.1629061089, 30.266612588 ]
			},
			"properties" : {
				"名称" : "杭州四合寓品牌公寓(凤起路店)",
				"类型" : "住宿服务;住宿服务相关;住宿服务相关",
				"地址" : "天元巷天水街道国都公寓17幢1单元1305室",
				"联系电话" : ""
			}
		},
		{
			"type" : "Feature",
			"geometry" : {
				"type" : "Point",
				"coordinates" : [ 120.163686019, 30.2716205925 ]
			},
			"properties" : {
				"名称" : "杭州西湖客栈分店",
				"类型" : "住宿服务;住宿服务相关;住宿服务相关",
				"地址" : "体育场路261号西子大厦2415室",
				"联系电话" : ""
			}
		},
		{
			"type" : "Feature",
			"geometry" : {
				"type" : "Point",
				"coordinates" : [ 120.1540615103, 30.2717707713 ]
			},
			"properties" : {
				"名称" : "杭州紫金宾馆(西子铭苑东北)",
				"类型" : "住宿服务;宾馆酒店;宾馆酒店",
				"地址" : "武林路437号农发大厦1层",
				"联系电话" : "0571-85177717"
			}
		},
		{
			"type" : "Feature",
			"geometry" : {
				"type" : "Point",
				"coordinates" : [ 120.1640815884, 30.2789526328 ]
			},
			"properties" : {
				"名称" : "杭州路客AA5580精品民宿",
				"类型" : "住宿服务;住宿服务相关;住宿服务相关",
				"地址" : "朝晖路184号",
				"联系电话" : ""
			}
		},
		{
			"type" : "Feature",
			"geometry" : {
				"type" : "Point",
				"coordinates" : [ 120.1551296969, 30.27105478 ]
			},
			"properties" : {
				"名称" : "杭州路客BC7460精品民宿",
				"类型" : "住宿服务;住宿服务相关;住宿服务相关",
				"地址" : "武林路武林桥河下11幢1单元",
				"联系电话" : ""
			}
		},
		{
			"type" : "Feature",
			"geometry" : {
				"type" : "Point",
				"coordinates" : [ 120.1623715278, 30.2784214801 ]
			},
			"properties" : {
				"名称" : "杭州西湖幸福居公寓(秋水弄分店)",
				"类型" : "住宿服务;住宿服务相关;住宿服务相关",
				"地址" : "中山花园秋月苑-北门",
				"联系电话" : "0571-10107888"
			}
		},
		{
			"type" : "Feature",
			"geometry" : {
				"type" : "Point",
				"coordinates" : [ 120.1638053641, 30.2717568037 ]
			},
			"properties" : {
				"名称" : "杭州根号三酒店公寓(武林店)",
				"类型" : "住宿服务;住宿服务相关;住宿服务相关",
				"地址" : "体育场路261号华润西子大厦近百货大楼",
				"联系电话" : "15957191929"
			}
		},
		{
			"type" : "Feature",
			"geometry" : {
				"type" : "Point",
				"coordinates" : [ 120.1636569356, 30.2715795418 ]
			},
			"properties" : {
				"名称" : "杭州西溪湿地LOFT毗邻灵隐の漂流岛酒店式公寓(",
				"类型" : "住宿服务;住宿服务相关;住宿服务相关",
				"地址" : "体育场路261号西子大厦1711室",
				"联系电话" : ""
			}
		},
		{
			"type" : "Feature",
			"geometry" : {
				"type" : "Point",
				"coordinates" : [ 120.1636559276, 30.2716395343 ]
			},
			"properties" : {
				"名称" : "杭州秦宣服务式公寓",
				"类型" : "住宿服务;住宿服务相关;住宿服务相关",
				"地址" : "体育场路261号西子大厦507室",
				"联系电话" : "15058157186"
			}
		},
		{
			"type" : "Feature",
			"geometry" : {
				"type" : "Point",
				"coordinates" : [ 120.1563845647, 30.268903273 ]
			},
			"properties" : {
				"名称" : "杭州妈妈的家酒店式公寓",
				"类型" : "住宿服务;住宿服务相关;住宿服务相关",
				"地址" : "戒坛寺巷与狮虎桥河下交叉口东100米",
				"联系电话" : ""
			}
		},
		{
			"type" : "Feature",
			"geometry" : {
				"type" : "Point",
				"coordinates" : [ 120.1654465571, 30.2682942039 ]
			},
			"properties" : {
				"名称" : "杭州小小敏的温馨House普通公寓",
				"类型" : "住宿服务;宾馆酒店;宾馆酒店",
				"地址" : "杨广才弄与茂泰南路交叉口东南100米",
				"联系电话" : ""
			}
		},
		{
			"type" : "Feature",
			"geometry" : {
				"type" : "Point",
				"coordinates" : [ 120.1636579304, 30.2716775345 ]
			},
			"properties" : {
				"名称" : "杭州走南闯北酒店式公寓",
				"类型" : "住宿服务;住宿服务相关;住宿服务相关",
				"地址" : "西子大厦2006室",
				"联系电话" : ""
			}
		},
		{
			"type" : "Feature",
			"geometry" : {
				"type" : "Point",
				"coordinates" : [ 120.1661236213, 30.2678115202 ]
			},
			"properties" : {
				"名称" : "杭州江南小驿酒店式公寓(凤起路分店)",
				"类型" : "住宿服务;住宿服务相关;住宿服务相关",
				"地址" : "三华园-3幢3幢1212",
				"联系电话" : ""
			}
		},
		{
			"type" : "Feature",
			"geometry" : {
				"type" : "Point",
				"coordinates" : [ 120.1581941074, 30.2665058223 ]
			},
			"properties" : {
				"名称" : "杭州湖东苑民居普通公寓",
				"类型" : "住宿服务;住宿服务相关;住宿服务相关",
				"地址" : "凤起路与延安路交叉口西100米",
				"联系电话" : ""
			}
		},
		{
			"type" : "Feature",
			"geometry" : {
				"type" : "Point",
				"coordinates" : [ 120.1612860187, 30.2816971264 ]
			},
			"properties" : {
				"名称" : "客人旅馆",
				"类型" : "住宿服务;旅馆招待所;旅馆招待所",
				"地址" : "中山北路600号中山北园56幢",
				"联系电话" : "0571-85241819"
			}
		},
		{
			"type" : "Feature",
			"geometry" : {
				"type" : "Point",
				"coordinates" : [ 120.1637941742, 30.2736316067 ]
			},
			"properties" : {
				"名称" : "杭州途掌柜焕焕公寓胭脂新村店",
				"类型" : "住宿服务;宾馆酒店;宾馆酒店",
				"地址" : "胭脂新村11幢",
				"联系电话" : ""
			}
		},
		{
			"type" : "Feature",
			"geometry" : {
				"type" : "Point",
				"coordinates" : [ 120.1626358703, 30.2717896088 ]
			},
			"properties" : {
				"名称" : "杭州Evelyn公寓",
				"类型" : "住宿服务;住宿服务相关;住宿服务相关",
				"地址" : "中山北路450号中国新型建材设计研究院",
				"联系电话" : "0571-80187829"
			}
		},
		{
			"type" : "Feature",
			"geometry" : {
				"type" : "Point",
				"coordinates" : [ 120.1562522021, 30.2685800596 ]
			},
			"properties" : {
				"名称" : "BABCD6DD4C6F63616C73C2B7BFCDA1A4BABCD6DDCFC2B3C7413239C9E1B9ABD4A228B6BCBDF5C9FAD6AFBD",
				"类型" : "住宿服务;住宿服务相关;住宿服务相关",
				"地址" : "狮虎桥路40号",
				"联系电话" : ""
			}
		},
		{
			"type" : "Feature",
			"geometry" : {
				"type" : "Point",
				"coordinates" : [ 120.1585118327, 30.2810350348 ]
			},
			"properties" : {
				"名称" : "杭州品位咖啡普通公寓",
				"类型" : "住宿服务;宾馆酒店;宾馆酒店",
				"地址" : "青园",
				"联系电话" : ""
			}
		},
		{
			"type" : "Feature",
			"geometry" : {
				"type" : "Point",
				"coordinates" : [ 120.16368602, 30.2716085936 ]
			},
			"properties" : {
				"名称" : "杭州鹿驻民宿",
				"类型" : "住宿服务;住宿服务相关;住宿服务相关",
				"地址" : "体育场路261号西子大厦",
				"联系电话" : ""
			}
		},
		{
			"type" : "Feature",
			"geometry" : {
				"type" : "Point",
				"coordinates" : [ 120.1612269527, 30.2684162853 ]
			},
			"properties" : {
				"名称" : "杭州晓阳姐姐的家普通公寓",
				"类型" : "住宿服务;住宿服务相关;住宿服务相关",
				"地址" : "凤起路皇亲苑7-2-403",
				"联系电话" : ""
			}
		},
		{
			"type" : "Feature",
			"geometry" : {
				"type" : "Point",
				"coordinates" : [ 120.1637010409, 30.2718955951 ]
			},
			"properties" : {
				"名称" : "杭州青木羽悦服务式酒店公寓(华润西子店)",
				"类型" : "住宿服务;住宿服务相关;住宿服务相关",
				"地址" : "华润西子1605",
				"联系电话" : ""
			}
		},
		{
			"type" : "Feature",
			"geometry" : {
				"type" : "Point",
				"coordinates" : [ 120.1570865192, 30.2822222851 ]
			},
			"properties" : {
				"名称" : "杭州西子民苑下城分舵普通公寓(文晖路店)",
				"类型" : "住宿服务;住宿服务相关;住宿服务相关",
				"地址" : "文晖路339-341号青园小区-19幢2704",
				"联系电话" : ""
			}
		},
		{
			"type" : "Feature",
			"geometry" : {
				"type" : "Point",
				"coordinates" : [ 120.1637490417, 30.2736035247 ]
			},
			"properties" : {
				"名称" : "杭州我在西湖边等你普通公寓",
				"类型" : "住宿服务;住宿服务相关;住宿服务相关",
				"地址" : "天水街道胭脂新村11幢4单元602",
				"联系电话" : ""
			}
		},
		{
			"type" : "Feature",
			"geometry" : {
				"type" : "Point",
				"coordinates" : [ 120.1655719977, 30.2675075108 ]
			},
			"properties" : {
				"名称" : "杭州小气公主的家靠近西湖普通公寓",
				"类型" : "住宿服务;住宿服务相关;住宿服务相关",
				"地址" : "三华园小区2-2104,下焦营巷",
				"联系电话" : ""
			}
		},
		{
			"type" : "Feature",
			"geometry" : {
				"type" : "Point",
				"coordinates" : [ 120.1599742988, 30.2675540294 ]
			},
			"properties" : {
				"名称" : "浙江影时代酒店(浙江影时代餐厅)",
				"类型" : "住宿服务;宾馆酒店;宾馆酒店",
				"地址" : "延安路与灯芯巷交叉口东北150米",
				"联系电话" : ""
			}
		},
		{
			"type" : "Feature",
			"geometry" : {
				"type" : "Point",
				"coordinates" : [ 120.153745567, 30.2720201758 ]
			},
			"properties" : {
				"名称" : "华住酒店",
				"类型" : "住宿服务;宾馆酒店;宾馆酒店",
				"地址" : "武林街道体育场路439号西子铭苑北区",
				"联系电话" : ""
			}
		},
		{
			"type" : "Feature",
			"geometry" : {
				"type" : "Point",
				"coordinates" : [ 120.1636679675, 30.2715925613 ]
			},
			"properties" : {
				"名称" : "杭州珊宝淇宝酒店式公寓(天水体育场路店)",
				"类型" : "住宿服务;宾馆酒店;宾馆酒店",
				"地址" : "体育场路261号",
				"联系电话" : ""
			}
		},
		{
			"type" : "Feature",
			"geometry" : {
				"type" : "Point",
				"coordinates" : [ 120.1635496219, 30.2714983481 ]
			},
			"properties" : {
				"名称" : "杭州青涩浪漫公寓",
				"类型" : "住宿服务;宾馆酒店;宾馆酒店",
				"地址" : "体育场路261号近中河路杭州广场西子大厦",
				"联系电话" : "17080034143"
			}
		},
		{
			"type" : "Feature",
			"geometry" : {
				"type" : "Point",
				"coordinates" : [ 120.1630613719, 30.2690126619 ]
			},
			"properties" : {
				"名称" : "杭州喜茶喜妹普通公寓(百井坊巷分店)",
				"类型" : "住宿服务;宾馆酒店;宾馆酒店",
				"地址" : "百井坊巷13号仓柱弄-北1门",
				"联系电话" : ""
			}
		},
		{
			"type" : "Feature",
			"geometry" : {
				"type" : "Point",
				"coordinates" : [ 120.1629211651, 30.2784525061 ]
			},
			"properties" : {
				"名称" : "杭州我的家就是你的家普通公寓(朝晖路分店)",
				"类型" : "住宿服务;宾馆酒店;宾馆酒店",
				"地址" : "朝晖路209中山花园-风荷苑",
				"联系电话" : ""
			}
		},
		{
			"type" : "Feature",
			"geometry" : {
				"type" : "Point",
				"coordinates" : [ 120.1552737998, 30.2748746835 ]
			},
			"properties" : {
				"名称" : "客家公寓(杭州武林广场店)",
				"类型" : "住宿服务;住宿服务相关;住宿服务相关",
				"地址" : "环城北路231号环北新村2幢6号204室",
				"联系电话" : "13282102602;18667022385"
			}
		},
		{
			"type" : "Feature",
			"geometry" : {
				"type" : "Point",
				"coordinates" : [ 120.1549550663, 30.2724713297 ]
			},
			"properties" : {
				"名称" : "中国水稻招待所",
				"类型" : "住宿服务;旅馆招待所;旅馆招待所",
				"地址" : "体育场路359号",
				"联系电话" : ""
			}
		},
		{
			"type" : "Feature",
			"geometry" : {
				"type" : "Point",
				"coordinates" : [ 120.1656346281, 30.2741810109 ]
			},
			"properties" : {
				"名称" : "杭州天水青年旅社",
				"类型" : "住宿服务;旅馆招待所;青年旅舍",
				"地址" : "中河北路胭脂新村天水巷1幢4楼",
				"联系电话" : "18257180199"
			}
		},
		{
			"type" : "Feature",
			"geometry" : {
				"type" : "Point",
				"coordinates" : [ 120.1640300296, 30.271823219 ]
			},
			"properties" : {
				"名称" : "赛伦司小酒店",
				"类型" : "住宿服务;宾馆酒店;宾馆酒店",
				"地址" : "体育场路与玄坛弄交叉口东南50米",
				"联系电话" : ""
			}
		},
		{
			"type" : "Feature",
			"geometry" : {
				"type" : "Point",
				"coordinates" : [ 120.1636850165, 30.2716155911 ]
			},
			"properties" : {
				"名称" : "杭州广州木西民宿(体育场路分店)",
				"类型" : "住宿服务;住宿服务相关;住宿服务相关",
				"地址" : "体育场路261号西子大厦",
				"联系电话" : ""
			}
		},
		{
			"type" : "Feature",
			"geometry" : {
				"type" : "Point",
				"coordinates" : [ 120.1637501988, 30.2717626997 ]
			},
			"properties" : {
				"名称" : "杭州近西湖武林广场地铁口市中心日式景观公寓",
				"类型" : "住宿服务;住宿服务相关;住宿服务相关",
				"地址" : "体育场路与玄坛弄交叉口西南50米",
				"联系电话" : ""
			}
		},
		{
			"type" : "Feature",
			"geometry" : {
				"type" : "Point",
				"coordinates" : [ 120.157451823, 30.2675793557 ]
			},
			"properties" : {
				"名称" : "杭州毅航精品民宿(灯芯巷店)",
				"类型" : "住宿服务;住宿服务相关;住宿服务相关",
				"地址" : "灯芯巷21号灯芯巷",
				"联系电话" : ""
			}
		},
		{
			"type" : "Feature",
			"geometry" : {
				"type" : "Point",
				"coordinates" : [ 120.155530645, 30.2737842561 ]
			},
			"properties" : {
				"名称" : "浙江省文化厅招待所",
				"类型" : "住宿服务;旅馆招待所;旅馆招待所",
				"地址" : "天水街道体育场路366号",
				"联系电话" : ""
			}
		},
		{
			"type" : "Feature",
			"geometry" : {
				"type" : "Point",
				"coordinates" : [ 120.1559604003, 30.2679025865 ]
			},
			"properties" : {
				"名称" : "杭州我的家就是你的家普通公寓(武林商圈武林路",
				"类型" : "住宿服务;宾馆酒店;宾馆酒店",
				"地址" : "孝丰路与武林路交叉口东50米",
				"联系电话" : ""
			}
		},
		{
			"type" : "Feature",
			"geometry" : {
				"type" : "Point",
				"coordinates" : [ 120.1636860166, 30.2716495898 ]
			},
			"properties" : {
				"名称" : "杭州秀才和博士酒店式公寓(西子大厦店)",
				"类型" : "住宿服务;住宿服务相关;住宿服务相关",
				"地址" : "西子大厦",
				"联系电话" : ""
			}
		},
		{
			"type" : "Feature",
			"geometry" : {
				"type" : "Point",
				"coordinates" : [ 120.1603882406, 30.2829673244 ]
			},
			"properties" : {
				"名称" : "德信商用酒店管理",
				"类型" : "住宿服务;住宿服务相关;住宿服务相关",
				"地址" : "晶晖商务大厦18楼",
				"联系电话" : ""
			}
		},
		{
			"type" : "Feature",
			"geometry" : {
				"type" : "Point",
				"coordinates" : [ 120.1626229306, 30.2706056944 ]
			},
			"properties" : {
				"名称" : "杭州漫游西溪之滨公寓(体育场路分店)",
				"类型" : "住宿服务;住宿服务相关;住宿服务相关",
				"地址" : "中山北路421号-华东单元",
				"联系电话" : ""
			}
		},
		{
			"type" : "Feature",
			"geometry" : {
				"type" : "Point",
				"coordinates" : [ 120.1633171484, 30.2688561555 ]
			},
			"properties" : {
				"名称" : "杭州小明同学民宿(中山北路店)",
				"类型" : "住宿服务;住宿服务相关;住宿服务相关",
				"地址" : "中山北路369号1单元302室",
				"联系电话" : ""
			}
		},
		{
			"type" : "Feature",
			"geometry" : {
				"type" : "Point",
				"coordinates" : [ 120.1638103882, 30.2716478233 ]
			},
			"properties" : {
				"名称" : "杭州近武林广场地铁E出口高层酒店式公寓",
				"类型" : "住宿服务;住宿服务相关;住宿服务相关",
				"地址" : "西子大厦",
				"联系电话" : ""
			}
		},
		{
			"type" : "Feature",
			"geometry" : {
				"type" : "Point",
				"coordinates" : [ 120.1622802694, 30.2782573254 ]
			},
			"properties" : {
				"名称" : "杭州在水一方乐享驿站",
				"类型" : "住宿服务;住宿服务相关;住宿服务相关",
				"地址" : "朝晖路211号中山花园裙楼",
				"联系电话" : "0571-87871111"
			}
		},
		{
			"type" : "Feature",
			"geometry" : {
				"type" : "Point",
				"coordinates" : [ 120.1613845112, 30.2673466762 ]
			},
			"properties" : {
				"名称" : "杭州市榴莲先生芒果小姐普通公寓",
				"类型" : "住宿服务;住宿服务相关;住宿服务相关",
				"地址" : "皇亲苑-3幢",
				"联系电话" : "0571-28745637"
			}
		},
		{
			"type" : "Feature",
			"geometry" : {
				"type" : "Point",
				"coordinates" : [ 120.1658588437, 30.2676450375 ]
			},
			"properties" : {
				"名称" : "杭州Bella House普通公寓(杭州高级中学店)",
				"类型" : "住宿服务;住宿服务相关;住宿服务相关",
				"地址" : "凤起路三华园小区290号B-2104",
				"联系电话" : ""
			}
		},
		{
			"type" : "Feature",
			"geometry" : {
				"type" : "Point",
				"coordinates" : [ 120.1613845112, 30.2673466762 ]
			},
			"properties" : {
				"名称" : "杭州途掌柜焕焕公寓(凤起路店)",
				"类型" : "住宿服务;住宿服务相关;住宿服务相关",
				"地址" : "皇亲苑3幢1单元301室",
				"联系电话" : ""
			}
		},
		{
			"type" : "Feature",
			"geometry" : {
				"type" : "Point",
				"coordinates" : [ 120.1636629317, 30.2718405287 ]
			},
			"properties" : {
				"名称" : "杭州西遇酒店式公寓",
				"类型" : "住宿服务;住宿服务相关;住宿服务相关",
				"地址" : "天水街道玄坛弄体育场路交汇处右侧华润西子中心",
				"联系电话" : "0571-86790929"
			}
		},
		{
			"type" : "Feature",
			"geometry" : {
				"type" : "Point",
				"coordinates" : [ 120.1632554388, 30.2751484523 ]
			},
			"properties" : {
				"名称" : "杭州西子湖畔尚总之家普通公寓(长运路店)",
				"类型" : "住宿服务;住宿服务相关;住宿服务相关",
				"地址" : "中山北路小北门2单元102",
				"联系电话" : ""
			}
		},
		{
			"type" : "Feature",
			"geometry" : {
				"type" : "Point",
				"coordinates" : [ 120.1577959235, 30.2665790802 ]
			},
			"properties" : {
				"名称" : "杭州舒克青年旅舍云上西湖店",
				"类型" : "住宿服务;住宿服务相关;住宿服务相关",
				"地址" : "凤起路地铁口灯芯巷社区凤起里三号楼",
				"联系电话" : "15968880926"
			}
		},
		{
			"type" : "Feature",
			"geometry" : {
				"type" : "Point",
				"coordinates" : [ 120.1561850674, 30.2678290047 ]
			},
			"properties" : {
				"名称" : "杭州烟笼寒之家普通公寓(凤起路店)",
				"类型" : "住宿服务;住宿服务相关;住宿服务相关",
				"地址" : "凤起路街道凤起桥河下36号2单元201",
				"联系电话" : ""
			}
		},
		{
			"type" : "Feature",
			"geometry" : {
				"type" : "Point",
				"coordinates" : [ 120.1544687406, 30.2712965545 ]
			},
			"properties" : {
				"名称" : "杭州四合寓品牌公寓(武林路店)",
				"类型" : "住宿服务;住宿服务相关;住宿服务相关",
				"地址" : "武林路399号西子铭苑1幢1单元501室",
				"联系电话" : ""
			}
		},
		{
			"type" : "Feature",
			"geometry" : {
				"type" : "Point",
				"coordinates" : [ 120.1644868387, 30.2784804399 ]
			},
			"properties" : {
				"名称" : "杭州西湖文化广场高品质住宅酒店式公寓",
				"类型" : "住宿服务;住宿服务相关;住宿服务相关",
				"地址" : "深蓝广场西三1006",
				"联系电话" : ""
			}
		},
		{
			"type" : "Feature",
			"geometry" : {
				"type" : "Point",
				"coordinates" : [ 120.1637791083, 30.2738815548 ]
			},
			"properties" : {
				"名称" : "杭州苏杭第一家普通公寓分店",
				"类型" : "住宿服务;住宿服务相关;住宿服务相关",
				"地址" : "天水巷65号天水巷小区12栋2单元502",
				"联系电话" : ""
			}
		},
		{
			"type" : "Feature",
			"geometry" : {
				"type" : "Point",
				"coordinates" : [ 120.162921165, 30.278453506 ]
			},
			"properties" : {
				"名称" : "杭州偶遇公寓",
				"类型" : "住宿服务;住宿服务相关;住宿服务相关",
				"地址" : "春建乡朝晖路209中山花园风荷苑",
				"联系电话" : ""
			}
		},
		{
			"type" : "Feature",
			"geometry" : {
				"type" : "Point",
				"coordinates" : [ 120.1569367476, 30.274213793 ]
			},
			"properties" : {
				"名称" : "三井日式铁板料理",
				"类型" : "住宿服务;住宿服务相关;住宿服务相关",
				"地址" : "武林广场21号杭州大厦A栋5层(近体育场路)",
				"联系电话" : ""
			}
		},
		{
			"type" : "Feature",
			"geometry" : {
				"type" : "Point",
				"coordinates" : [ 120.1595357432, 30.2705829377 ]
			},
			"properties" : {
				"名称" : "娇韵诗专柜杭州银泰西湖店",
				"类型" : "住宿服务;住宿服务相关;住宿服务相关",
				"地址" : "延安路530号武林银泰百货1层",
				"联系电话" : ""
			}
		},
		{
			"type" : "Feature",
			"geometry" : {
				"type" : "Point",
				"coordinates" : [ 120.1613603903, 30.2679345781 ]
			},
			"properties" : {
				"名称" : "杭州淡若明前(00007060)公寓(孩儿巷分店)",
				"类型" : "住宿服务;住宿服务相关;住宿服务相关",
				"地址" : "皇亲苑小区5-2-502",
				"联系电话" : ""
			}
		},
		{
			"type" : "Feature",
			"geometry" : {
				"type" : "Point",
				"coordinates" : [ 120.1546042271, 30.2702219002 ]
			},
			"properties" : {
				"名称" : "杭州Y(00124870)公寓(坝子桥分店)",
				"类型" : "住宿服务;住宿服务相关;住宿服务相关",
				"地址" : "劳工弄4号楼202",
				"联系电话" : "0571-80187829"
			}
		},
		{
			"type" : "Feature",
			"geometry" : {
				"type" : "Point",
				"coordinates" : [ 120.1660242798, 30.2683452851 ]
			},
			"properties" : {
				"名称" : "杭州亦家林森公寓(杭州天主教堂分店)",
				"类型" : "住宿服务;住宿服务相关;住宿服务相关",
				"地址" : "中河北路69号",
				"联系电话" : ""
			}
		},
		{
			"type" : "Feature",
			"geometry" : {
				"type" : "Point",
				"coordinates" : [ 120.1636749848, 30.2716355704 ]
			},
			"properties" : {
				"名称" : "杭州Dylan梵彬公寓(杭州天主教堂分店)",
				"类型" : "住宿服务;住宿服务相关;住宿服务相关",
				"地址" : "西子大厦",
				"联系电话" : ""
			}
		},
		{
			"type" : "Feature",
			"geometry" : {
				"type" : "Point",
				"coordinates" : [ 120.163408456, 30.2684373648 ]
			},
			"properties" : {
				"名称" : "杭州咩仔小屋公寓(孩儿巷分店)",
				"类型" : "住宿服务;住宿服务相关;住宿服务相关",
				"地址" : "中山北路341号-5单元",
				"联系电话" : ""
			}
		},
		{
			"type" : "Feature",
			"geometry" : {
				"type" : "Point",
				"coordinates" : [ 120.1654525489, 30.2686071867 ]
			},
			"properties" : {
				"名称" : "杭州途掌柜焕焕公寓(中山北路店)",
				"类型" : "住宿服务;住宿服务相关;住宿服务相关",
				"地址" : "社坛巷5幢2单元501室",
				"联系电话" : ""
			}
		},
		{
			"type" : "Feature",
			"geometry" : {
				"type" : "Point",
				"coordinates" : [ 120.1568618568, 30.2702700242 ]
			},
			"properties" : {
				"名称" : "宁巢公寓(戒坛寺巷店)",
				"类型" : "住宿服务;住宿服务相关;住宿服务相关",
				"地址" : "戒坛寺巷21号",
				"联系电话" : ""
			}
		},
		{
			"type" : "Feature",
			"geometry" : {
				"type" : "Point",
				"coordinates" : [ 120.1604786278, 30.2815526354 ]
			},
			"properties" : {
				"名称" : "杭州客人旅馆",
				"类型" : "住宿服务;住宿服务相关;住宿服务相关",
				"地址" : "中山北路607号二楼",
				"联系电话" : "17767193971"
			}
		},
		{
			"type" : "Feature",
			"geometry" : {
				"type" : "Point",
				"coordinates" : [ 120.1609421496, 30.2678808025 ]
			},
			"properties" : {
				"名称" : "杭州西湖边的小筑(皇亲巷分店)",
				"类型" : "住宿服务;住宿服务相关;住宿服务相关",
				"地址" : "百井坊巷13号皇亲苑",
				"联系电话" : "13486491707"
			}
		},
		{
			"type" : "Feature",
			"geometry" : {
				"type" : "Point",
				"coordinates" : [ 120.156479873, 30.2685734779 ]
			},
			"properties" : {
				"名称" : "杭州杭舍公寓(狮虎桥路分店)",
				"类型" : "住宿服务;住宿服务相关;住宿服务相关",
				"地址" : "狮虎桥路40号",
				"联系电话" : ""
			}
		},
		{
			"type" : "Feature",
			"geometry" : {
				"type" : "Point",
				"coordinates" : [ 120.1549562094, 30.2708034871 ]
			},
			"properties" : {
				"名称" : "杭州骑行西湖西溪湿地蓝色深海主题公寓(武林路",
				"类型" : "住宿服务;住宿服务相关;住宿服务相关",
				"地址" : "武林路348号-1单元",
				"联系电话" : ""
			}
		},
		{
			"type" : "Feature",
			"geometry" : {
				"type" : "Point",
				"coordinates" : [ 120.1659119012, 30.2688570273 ]
			},
			"properties" : {
				"名称" : "桂墅民宿",
				"类型" : "住宿服务;住宿服务相关;住宿服务相关",
				"地址" : "中河北路与茂泰南路交叉口西50米",
				"联系电话" : ""
			}
		},
		{
			"type" : "Feature",
			"geometry" : {
				"type" : "Point",
				"coordinates" : [ 120.1636850137, 30.271648588 ]
			},
			"properties" : {
				"名称" : "杭州唐逐公寓",
				"类型" : "住宿服务;住宿服务相关;住宿服务相关",
				"地址" : "西子大厦",
				"联系电话" : ""
			}
		},
		{
			"type" : "Feature",
			"geometry" : {
				"type" : "Point",
				"coordinates" : [ 120.1647744682, 30.2692548537 ]
			},
			"properties" : {
				"名称" : "杭州唐逐公寓(屏风街分店)",
				"类型" : "住宿服务;住宿服务相关;住宿服务相关",
				"地址" : "九鼎·名仕顿商务楼",
				"联系电话" : ""
			}
		},
		{
			"type" : "Feature",
			"geometry" : {
				"type" : "Point",
				"coordinates" : [ 120.1569354137, 30.2662065281 ]
			},
			"properties" : {
				"名称" : "杭州Lihome妞妞安公寓",
				"类型" : "住宿服务;住宿服务相关;住宿服务相关",
				"地址" : "凤起路512号",
				"联系电话" : ""
			}
		},
		{
			"type" : "Feature",
			"geometry" : {
				"type" : "Point",
				"coordinates" : [ 120.1624824714, 30.2830572257 ]
			},
			"properties" : {
				"名称" : "杭州路客AA7460精品民宿",
				"类型" : "住宿服务;住宿服务相关;住宿服务相关",
				"地址" : "文晖路269号",
				"联系电话" : ""
			}
		},
		{
			"type" : "Feature",
			"geometry" : {
				"type" : "Point",
				"coordinates" : [ 120.1626573819, 30.2784050168 ]
			},
			"properties" : {
				"名称" : "星程酒店",
				"类型" : "住宿服务;宾馆酒店;宾馆酒店",
				"地址" : "朝晖路196号附近",
				"联系电话" : ""
			}
		},
		{
			"type" : "Feature",
			"geometry" : {
				"type" : "Point",
				"coordinates" : [ 120.1577434435, 30.2824144763 ]
			},
			"properties" : {
				"名称" : "致远大酒店-大堂吧",
				"类型" : "住宿服务;住宿服务相关;住宿服务相关",
				"地址" : "文晖路321号杭州致远大酒店1层",
				"联系电话" : ""
			}
		},
		{
			"type" : "Feature",
			"geometry" : {
				"type" : "Point",
				"coordinates" : [ 120.1617506938, 30.278218339 ]
			},
			"properties" : {
				"名称" : "party house派对屋",
				"类型" : "住宿服务;住宿服务相关;住宿服务相关",
				"地址" : "朝晖路221号中山花园旁",
				"联系电话" : ""
			}
		},
		{
			"type" : "Feature",
			"geometry" : {
				"type" : "Point",
				"coordinates" : [ 120.1632399288, 30.2687260226 ]
			},
			"properties" : {
				"名称" : "杭州yoyo的小屋",
				"类型" : "住宿服务;住宿服务相关;住宿服务相关",
				"地址" : "中山北路361号2单元202室",
				"联系电话" : ""
			}
		},
		{
			"type" : "Feature",
			"geometry" : {
				"type" : "Point",
				"coordinates" : [ 120.1552280631, 30.2701270451 ]
			},
			"properties" : {
				"名称" : "杭州中心公寓",
				"类型" : "住宿服务;住宿服务相关;住宿服务相关",
				"地址" : "武林桥河下1号-2单元401",
				"联系电话" : ""
			}
		},
		{
			"type" : "Feature",
			"geometry" : {
				"type" : "Point",
				"coordinates" : [ 120.1637040709, 30.271645624 ]
			},
			"properties" : {
				"名称" : "杭州凤起立交单身公寓(体育场路分店)",
				"类型" : "住宿服务;住宿服务相关;住宿服务相关",
				"地址" : "体育场路261号西子大厦屏风街(武林广场附近市中心)",
				"联系电话" : ""
			}
		},
		{
			"type" : "Feature",
			"geometry" : {
				"type" : "Point",
				"coordinates" : [ 120.164388186, 30.2707879874 ]
			},
			"properties" : {
				"名称" : "杭州区咫尺边舒适空间别墅玄坛弄店",
				"类型" : "住宿服务;住宿服务相关;住宿服务相关",
				"地址" : "玄坛弄71号",
				"联系电话" : ""
			}
		}
	]
}