{
	"type" : "FeatureCollection",
	"name" : "风景名胜",
	"features" : [
		{
			"type" : "Feature",
			"geometry" : {
				"type" : "Point",
				"coordinates" : [ 120.1775915107, 30.2820355837 ]
			},
			"properties" : {
				"景点名称" : "艮山古樟",
				"景点类型" : "风景名胜;风景名胜;风景名胜",
				"地址" : "朝晖路与绍兴路交叉口西南50米",
				"联系电话" : ""
			}
		},
		{
			"type" : "Feature",
			"geometry" : {
				"type" : "Point",
				"coordinates" : [ 120.1716407613, 30.2837993472 ]
			},
			"properties" : {
				"景点名称" : "古打铁关",
				"景点类型" : "风景名胜;风景名胜;风景名胜",
				"地址" : "打铁关路52号",
				"联系电话" : ""
			}
		},
		{
			"type" : "Feature",
			"geometry" : {
				"type" : "Point",
				"coordinates" : [ 120.1717902236, 30.2835916483 ]
			},
			"properties" : {
				"景点名称" : "打铁关历史文化碑廊",
				"景点类型" : "风景名胜;风景名胜;风景名胜",
				"地址" : "文晖路",
				"联系电话" : ""
			}
		},
		{
			"type" : "Feature",
			"geometry" : {
				"type" : "Point",
				"coordinates" : [ 120.178506343, 30.2801954466 ]
			},
			"properties" : {
				"景点名称" : "河山共韵",
				"景点类型" : "风景名胜;风景名胜;风景名胜",
				"地址" : "河罕上2附近",
				"联系电话" : ""
			}
		},
		{
			"type" : "Feature",
			"geometry" : {
				"type" : "Point",
				"coordinates" : [ 120.1737094243, 30.27760883 ]
			},
			"properties" : {
				"景点名称" : "古艮山门",
				"景点类型" : "风景名胜;风景名胜;风景名胜",
				"地址" : "环城北路与建国北路交叉处旁",
				"联系电话" : ""
			}
		},
		{
			"type" : "Feature",
			"geometry" : {
				"type" : "Point",
				"coordinates" : [ 120.1735851258, 30.2767656801 ]
			},
			"properties" : {
				"景点名称" : "坝子桥",
				"景点类型" : "风景名胜;风景名胜;风景名胜",
				"地址" : "仓河下与环城北路交叉口东100米",
				"联系电话" : ""
			}
		},
		{
			"type" : "Feature",
			"geometry" : {
				"type" : "Point",
				"coordinates" : [ 120.1731969924, 30.2765449773 ]
			},
			"properties" : {
				"景点名称" : "凤凰亭",
				"景点类型" : "风景名胜;风景名胜;风景名胜",
				"地址" : "环城北路115号",
				"联系电话" : ""
			}
		},
		{
			"type" : "Feature",
			"geometry" : {
				"type" : "Point",
				"coordinates" : [ 120.1697776864, 30.2780454269 ]
			},
			"properties" : {
				"景点名称" : "映月桥(施家花园社区卫生服务站东)",
				"景点类型" : "风景名胜;风景名胜;风景名胜",
				"地址" : "环城北路132号附近",
				"联系电话" : ""
			}
		},
		{
			"type" : "Feature",
			"geometry" : {
				"type" : "Point",
				"coordinates" : [ 120.1638355875, 30.2821388542 ]
			},
			"properties" : {
				"景点名称" : "徐志摩纪念馆",
				"景点类型" : "风景名胜;风景名胜;纪念馆",
				"地址" : "上塘路97号大院",
				"联系电话" : "0571-87399192"
			}
		},
		{
			"type" : "Feature",
			"geometry" : {
				"type" : "Point",
				"coordinates" : [ 120.1740789285, 30.2726949884 ]
			},
			"properties" : {
				"景点名称" : "宝善亭",
				"景点类型" : "风景名胜;风景名胜;风景名胜",
				"地址" : "仓河下30号",
				"联系电话" : ""
			}
		},
		{
			"type" : "Feature",
			"geometry" : {
				"type" : "Point",
				"coordinates" : [ 120.1749395458, 30.2718526679 ]
			},
			"properties" : {
				"景点名称" : "东河亭",
				"景点类型" : "风景名胜;风景名胜;风景名胜",
				"地址" : "体育场路93-4号",
				"联系电话" : ""
			}
		},
		{
			"type" : "Feature",
			"geometry" : {
				"type" : "Point",
				"coordinates" : [ 120.1682115258, 30.2718460757 ]
			},
			"properties" : {
				"景点名称" : "锦韵悠长",
				"景点类型" : "风景名胜;风景名胜;风景名胜",
				"地址" : "体育场路与西健康路交叉口东南50米",
				"联系电话" : ""
			}
		},
		{
			"type" : "Feature",
			"geometry" : {
				"type" : "Point",
				"coordinates" : [ 120.1590646121, 30.2793502262 ]
			},
			"properties" : {
				"景点名称" : "西湖文化广场-浙越古戏台",
				"景点类型" : "风景名胜;风景名胜;风景名胜",
				"地址" : "西湖文化广场9号",
				"联系电话" : ""
			}
		},
		{
			"type" : "Feature",
			"geometry" : {
				"type" : "Point",
				"coordinates" : [ 120.1574608246, 30.2798292134 ]
			},
			"properties" : {
				"景点名称" : "浙江革命历史纪念馆",
				"景点类型" : "风景名胜;风景名胜;纪念馆",
				"地址" : "西湖文化广场29号",
				"联系电话" : ""
			}
		},
		{
			"type" : "Feature",
			"geometry" : {
				"type" : "Point",
				"coordinates" : [ 120.1684634506, 30.2697817403 ]
			},
			"properties" : {
				"景点名称" : "锦雲厅",
				"景点类型" : "风景名胜;风景名胜;风景名胜",
				"地址" : "健康路与西健康路交叉口东50米",
				"联系电话" : ""
			}
		},
		{
			"type" : "Feature",
			"geometry" : {
				"type" : "Point",
				"coordinates" : [ 120.1711174828, 30.2684288473 ]
			},
			"properties" : {
				"景点名称" : "明宅",
				"景点类型" : "风景名胜;风景名胜;风景名胜",
				"地址" : "新华路227号",
				"联系电话" : ""
			}
		},
		{
			"type" : "Feature",
			"geometry" : {
				"type" : "Point",
				"coordinates" : [ 120.1621996104, 30.2712958383 ]
			},
			"properties" : {
				"景点名称" : "天水堂",
				"景点类型" : "风景名胜;风景名胜;教堂",
				"地址" : "中山北路437-1号(耶稣堂弄口)",
				"联系电话" : ""
			}
		},
		{
			"type" : "Feature",
			"geometry" : {
				"type" : "Point",
				"coordinates" : [ 120.1617131449, 30.2714799117 ]
			},
			"properties" : {
				"景点名称" : "司徒雷登故居",
				"景点类型" : "风景名胜;风景名胜;纪念馆",
				"地址" : "耶稣堂弄3号",
				"联系电话" : "0571-85175986"
			}
		},
		{
			"type" : "Feature",
			"geometry" : {
				"type" : "Point",
				"coordinates" : [ 120.1626560424, 30.2704497708 ]
			},
			"properties" : {
				"景点名称" : "杭州中美友谊民间纪念馆",
				"景点类型" : "风景名胜;风景名胜;纪念馆",
				"地址" : "后营弄与耶稣堂弄交叉口南100米",
				"联系电话" : ""
			}
		},
		{
			"type" : "Feature",
			"geometry" : {
				"type" : "Point",
				"coordinates" : [ 120.1586278072, 30.2734929822 ]
			},
			"properties" : {
				"景点名称" : "武林广场-八少女音乐喷泉",
				"景点类型" : "风景名胜;风景名胜;风景名胜",
				"地址" : "武林广场",
				"联系电话" : ""
			}
		},
		{
			"type" : "Feature",
			"geometry" : {
				"type" : "Point",
				"coordinates" : [ 120.1628897767, 30.2700082492 ]
			},
			"properties" : {
				"景点名称" : "天主教杭州教区",
				"景点类型" : "风景名胜;风景名胜;教堂",
				"地址" : "中山北路415号(近银泰)",
				"联系电话" : ""
			}
		},
		{
			"type" : "Feature",
			"geometry" : {
				"type" : "Point",
				"coordinates" : [ 120.1715068305, 30.3141796499 ]
			},
			"properties" : {
				"景点名称" : "潮王庙",
				"景点类型" : "风景名胜;风景名胜;寺庙道观",
				"地址" : "东新街道东新路积福里23号",
				"联系电话" : ""
			}
		},
		{
			"type" : "Feature",
			"geometry" : {
				"type" : "Point",
				"coordinates" : [ 120.1626219835, 30.2699387541 ]
			},
			"properties" : {
				"景点名称" : "杭州天主教堂",
				"景点类型" : "风景名胜;风景名胜;教堂",
				"地址" : "中山北路415号(近银泰)",
				"联系电话" : "0571-85101803"
			}
		},
		{
			"type" : "Feature",
			"geometry" : {
				"type" : "Point",
				"coordinates" : [ 120.1771406224, 30.264764384 ]
			},
			"properties" : {
				"景点名称" : "常乐亭",
				"景点类型" : "风景名胜;风景名胜;风景名胜",
				"地址" : "建国北路178-3号",
				"联系电话" : ""
			}
		},
		{
			"type" : "Feature",
			"geometry" : {
				"type" : "Point",
				"coordinates" : [ 120.1736432533, 30.2652858526 ]
			},
			"properties" : {
				"景点名称" : "梁宅",
				"景点类型" : "风景名胜;风景名胜;风景名胜",
				"地址" : "双眼井巷2号",
				"联系电话" : ""
			}
		},
		{
			"type" : "Feature",
			"geometry" : {
				"type" : "Point",
				"coordinates" : [ 120.1508246098, 30.2897421697 ]
			},
			"properties" : {
				"景点名称" : "半道春红",
				"景点类型" : "风景名胜;风景名胜;风景名胜",
				"地址" : "潮王路182号",
				"联系电话" : ""
			}
		},
		{
			"type" : "Feature",
			"geometry" : {
				"type" : "Point",
				"coordinates" : [ 120.1727416797, 30.2640522785 ]
			},
			"properties" : {
				"景点名称" : "王马阁",
				"景点类型" : "风景名胜;风景名胜;风景名胜",
				"地址" : "横燕子弄8幢附近",
				"联系电话" : ""
			}
		},
		{
			"type" : "Feature",
			"geometry" : {
				"type" : "Point",
				"coordinates" : [ 120.1764121379, 30.316966432 ]
			},
			"properties" : {
				"景点名称" : "聚星亭",
				"景点类型" : "风景名胜;风景名胜;风景名胜",
				"地址" : "沈家巷与沈家路交叉口南150米",
				"联系电话" : ""
			}
		},
		{
			"type" : "Feature",
			"geometry" : {
				"type" : "Point",
				"coordinates" : [ 120.1568205771, 30.2721577731 ]
			},
			"properties" : {
				"景点名称" : "万寿亭",
				"景点类型" : "风景名胜;风景名胜;风景名胜",
				"地址" : "延安路591号",
				"联系电话" : ""
			}
		},
		{
			"type" : "Feature",
			"geometry" : {
				"type" : "Point",
				"coordinates" : [ 120.1732933698, 30.2634283634 ]
			},
			"properties" : {
				"景点名称" : "白衣寺",
				"景点类型" : "风景名胜;风景名胜;寺庙道观",
				"地址" : "遥祥寺巷2号",
				"联系电话" : ""
			}
		},
		{
			"type" : "Feature",
			"geometry" : {
				"type" : "Point",
				"coordinates" : [ 120.1633223475, 30.266657364 ]
			},
			"properties" : {
				"景点名称" : "凤起亭",
				"景点类型" : "风景名胜;风景名胜;风景名胜",
				"地址" : "凤起路365号附近",
				"联系电话" : ""
			}
		},
		{
			"type" : "Feature",
			"geometry" : {
				"type" : "Point",
				"coordinates" : [ 120.1587004878, 30.2679296311 ]
			},
			"properties" : {
				"景点名称" : "钱王井",
				"景点类型" : "风景名胜;风景名胜;风景名胜",
				"地址" : "延安路489附近",
				"联系电话" : ""
			}
		},
		{
			"type" : "Feature",
			"geometry" : {
				"type" : "Point",
				"coordinates" : [ 120.1586904615, 30.2678886163 ]
			},
			"properties" : {
				"景点名称" : "杭州市工农业生产建设展览馆旧址",
				"景点类型" : "风景名胜;风景名胜;风景名胜",
				"地址" : "延安路489号",
				"联系电话" : ""
			}
		},
		{
			"type" : "Feature",
			"geometry" : {
				"type" : "Point",
				"coordinates" : [ 120.1709595853, 30.2615461601 ]
			},
			"properties" : {
				"景点名称" : "吴宅",
				"景点类型" : "风景名胜;风景名胜;风景名胜",
				"地址" : "新华路岳官巷4号",
				"联系电话" : "55"
			}
		},
		{
			"type" : "Feature",
			"geometry" : {
				"type" : "Point",
				"coordinates" : [ 120.1750407715, 30.2607088517 ]
			},
			"properties" : {
				"景点名称" : "五洋亭",
				"景点类型" : "风景名胜;风景名胜;风景名胜",
				"地址" : "庆春路313号附近",
				"联系电话" : ""
			}
		},
		{
			"type" : "Feature",
			"geometry" : {
				"type" : "Point",
				"coordinates" : [ 120.1633666804, 30.2642546604 ]
			},
			"properties" : {
				"景点名称" : "陆游诗词碑廊",
				"景点类型" : "风景名胜;风景名胜;风景名胜",
				"地址" : "孩儿巷38号",
				"联系电话" : ""
			}
		},
		{
			"type" : "Feature",
			"geometry" : {
				"type" : "Point",
				"coordinates" : [ 120.1585681945, 30.2667504924 ]
			},
			"properties" : {
				"景点名称" : "龙兴寺经幢",
				"景点类型" : "风景名胜;风景名胜;风景名胜",
				"地址" : "延安路北段灯芯巷口",
				"联系电话" : ""
			}
		},
		{
			"type" : "Feature",
			"geometry" : {
				"type" : "Point",
				"coordinates" : [ 120.1622754344, 30.264136627 ]
			},
			"properties" : {
				"景点名称" : "陆游纪念馆",
				"景点类型" : "风景名胜;风景名胜;纪念馆",
				"地址" : "孩儿巷98号",
				"联系电话" : ""
			}
		},
		{
			"type" : "Feature",
			"geometry" : {
				"type" : "Point",
				"coordinates" : [ 120.1639235095, 30.2622608787 ]
			},
			"properties" : {
				"景点名称" : "梅王阁",
				"景点类型" : "风景名胜;风景名胜;风景名胜",
				"地址" : "永丰巷15号",
				"联系电话" : ""
			}
		},
		{
			"type" : "Feature",
			"geometry" : {
				"type" : "Point",
				"coordinates" : [ 120.1672335372, 30.260638238 ]
			},
			"properties" : {
				"景点名称" : "庆馀亭",
				"景点类型" : "风景名胜;风景名胜;风景名胜",
				"地址" : "长庆中河北路中河(广利大厦东50米)",
				"联系电话" : ""
			}
		},
		{
			"type" : "Feature",
			"geometry" : {
				"type" : "Point",
				"coordinates" : [ 120.1527960787, 30.2687167672 ]
			},
			"properties" : {
				"景点名称" : "安吉路35号别墅建筑",
				"景点类型" : "风景名胜;风景名胜;风景名胜",
				"地址" : "安吉路35号",
				"联系电话" : ""
			}
		},
		{
			"type" : "Feature",
			"geometry" : {
				"type" : "Point",
				"coordinates" : [ 120.152846243, 30.2684968775 ]
			},
			"properties" : {
				"景点名称" : "安吉路37号别墅建筑",
				"景点类型" : "风景名胜;风景名胜;风景名胜",
				"地址" : "安吉路37号",
				"联系电话" : ""
			}
		},
		{
			"type" : "Feature",
			"geometry" : {
				"type" : "Point",
				"coordinates" : [ 120.1620850898, 30.2614675031 ]
			},
			"properties" : {
				"景点名称" : "竹竿巷小区",
				"景点类型" : "风景名胜;风景名胜;风景名胜",
				"地址" : "竹竿巷33号",
				"联系电话" : ""
			}
		},
		{
			"type" : "Feature",
			"geometry" : {
				"type" : "Point",
				"coordinates" : [ 120.1583518359, 30.2633773906 ]
			},
			"properties" : {
				"景点名称" : "逸庐",
				"景点类型" : "风景名胜;风景名胜;风景名胜",
				"地址" : "横长寿路6号",
				"联系电话" : ""
			}
		},
		{
			"type" : "Feature",
			"geometry" : {
				"type" : "Point",
				"coordinates" : [ 120.1612887501, 30.261073049 ]
			},
			"properties" : {
				"景点名称" : "马寅初纪念馆",
				"景点类型" : "风景名胜;风景名胜;纪念馆",
				"地址" : "庆春路210号(近延安路)",
				"联系电话" : ""
			}
		},
		{
			"type" : "Feature",
			"geometry" : {
				"type" : "Point",
				"coordinates" : [ 120.1601864363, 30.2614859589 ]
			},
			"properties" : {
				"景点名称" : "仁德里12号",
				"景点类型" : "风景名胜;风景名胜;风景名胜",
				"地址" : "庆春路与延安路交叉口",
				"联系电话" : ""
			}
		},
		{
			"type" : "Feature",
			"geometry" : {
				"type" : "Point",
				"coordinates" : [ 120.1530440919, 30.2652325268 ]
			},
			"properties" : {
				"景点名称" : "彩虹舞",
				"景点类型" : "风景名胜;风景名胜;风景名胜",
				"地址" : "凤起路与环城西路交叉口东南50米",
				"联系电话" : ""
			}
		},
		{
			"type" : "Feature",
			"geometry" : {
				"type" : "Point",
				"coordinates" : [ 120.1589277306, 30.2611196524 ]
			},
			"properties" : {
				"景点名称" : "浙江省高等法院及杭县地方法院旧址",
				"景点类型" : "风景名胜;风景名胜;纪念馆",
				"地址" : "庆春路258号",
				"联系电话" : ""
			}
		},
		{
			"type" : "Feature",
			"geometry" : {
				"type" : "Point",
				"coordinates" : [ 120.1538334941, 30.2640160599 ]
			},
			"properties" : {
				"景点名称" : "沙孟海旧居",
				"景点类型" : "风景名胜;风景名胜;纪念馆",
				"地址" : "龙游路82号(近环城西路)",
				"联系电话" : ""
			}
		},
		{
			"type" : "Feature",
			"geometry" : {
				"type" : "Point",
				"coordinates" : [ 120.1556148483, 30.2623644448 ]
			},
			"properties" : {
				"景点名称" : "梅鹤堂",
				"景点类型" : "风景名胜;风景名胜;风景名胜",
				"地址" : "教场路2-11号",
				"联系电话" : ""
			}
		},
		{
			"type" : "Feature",
			"geometry" : {
				"type" : "Point",
				"coordinates" : [ 120.1556800462, 30.2622885706 ]
			},
			"properties" : {
				"景点名称" : "梅鹤堂林界",
				"景点类型" : "风景名胜;风景名胜;风景名胜",
				"地址" : "教场路与武林路交叉口西南50米",
				"联系电话" : ""
			}
		},
		{
			"type" : "Feature",
			"geometry" : {
				"type" : "Point",
				"coordinates" : [ 120.1762611459, 30.3355396422 ]
			},
			"properties" : {
				"景点名称" : "千佛殿",
				"景点类型" : "风景名胜;风景名胜;寺庙道观",
				"地址" : "甘长路41号楼附近",
				"联系电话" : ""
			}
		},
		{
			"type" : "Feature",
			"geometry" : {
				"type" : "Point",
				"coordinates" : [ 120.1761708779, 30.335562472 ]
			},
			"properties" : {
				"景点名称" : "定慧寺",
				"景点类型" : "风景名胜;风景名胜;寺庙道观",
				"地址" : "石桥街道益达印务甘长路41号楼",
				"联系电话" : ""
			}
		},
		{
			"type" : "Feature",
			"geometry" : {
				"type" : "Point",
				"coordinates" : [ 120.1793611546, 30.3365231958 ]
			},
			"properties" : {
				"景点名称" : "永清桥",
				"景点类型" : "风景名胜;风景名胜;风景名胜",
				"地址" : "永清路50号附近",
				"联系电话" : ""
			}
		},
		{
			"type" : "Feature",
			"geometry" : {
				"type" : "Point",
				"coordinates" : [ 120.1973297862, 30.3498237863 ]
			},
			"properties" : {
				"景点名称" : "众华禅寺",
				"景点类型" : "风景名胜;风景名胜;寺庙道观",
				"地址" : "永华街61号",
				"联系电话" : ""
			}
		},
		{
			"type" : "Feature",
			"geometry" : {
				"type" : "Point",
				"coordinates" : [ 120.19775785, 30.3502693754 ]
			},
			"properties" : {
				"景点名称" : "鲁村庙",
				"景点类型" : "风景名胜;风景名胜;寺庙道观",
				"地址" : "华中路附近",
				"联系电话" : ""
			}
		}
	]
}